[
    {
        "Cod_Cancha": 12,
        "Codigo_Pais": "CR",
        "Pais": "Costa Rica",
        "Codigo_Estado": "A",
        "Estado": "Alajuela",
        "Codigo_Ciudad": 21672,
        "Ciudad": "Desamparados",
        "Latitud": "10.016369852495",
        "Longitud": "-84.179597683134",
        "Codigo_Postal": null,
        "Direccion": null
    },
    {
        "Cod_Cancha": 10,
        "Codigo_Pais": "CR",
        "Pais": "Costa Rica",
        "Codigo_Estado": "H",
        "Estado": "Heredia",
        "Codigo_Ciudad": 21746,
        "Ciudad": "San Antonio",
        "Latitud": "9.978261",
        "Longitud": "-84.18472",
        "Codigo_Postal": null,
        "Direccion": null
    },
    {
        "Cod_Cancha": 43,
        "Codigo_Pais": "CR",
        "Pais": "Costa Rica",
        "Codigo_Estado": "A",
        "Estado": "Alajuela",
        "Codigo_Ciudad": 21766,
        "Ciudad": "San Rafael",
        "Latitud": "9.96691",
        "Longitud": "-84.222587",
        "Codigo_Postal": null,
        "Direccion": null
    },
    {
        "Cod_Cancha": 37,
        "Codigo_Pais": "CR",
        "Pais": "Costa Rica",
        "Codigo_Estado": "SJ",
        "Estado": "San Jose",
        "Codigo_Ciudad": null,
        "Ciudad": null,
        "Latitud": "9.9369307341433",
        "Longitud": "-84.184454124051",
        "Codigo_Postal": null,
        "Direccion": null
    },
    {
        "Cod_Cancha": 45,
        "Codigo_Pais": "CR",
        "Pais": "Costa Rica",
        "Codigo_Estado": "H",
        "Estado": "Heredia",
        "Codigo_Ciudad": 21746,
        "Ciudad": "San Antonio",
        "Latitud": "9.9811194389274",
        "Longitud": "-84.191011253507",
        "Codigo_Postal": null,
        "Direccion": null
    },
    {
        "Cod_Cancha": 2,
        "Codigo_Pais": "CR",
        "Pais": "Costa Rica",
        "Codigo_Estado": "H",
        "Estado": "Heredia",
        "Codigo_Ciudad": null,
        "Ciudad": null,
        "Latitud": "37.335322570905",
        "Longitud": "-121.88420657063",
        "Codigo_Postal": null,
        "Direccion": null
    },
    {
        "Cod_Cancha": 9,
        "Codigo_Pais": "CR",
        "Pais": "Costa Rica",
        "Codigo_Estado": "H",
        "Estado": "Heredia",
        "Codigo_Ciudad": 21746,
        "Ciudad": "San Antonio",
        "Latitud": "9.978261",
        "Longitud": "-84.18472",
        "Codigo_Postal": null,
        "Direccion": null
    },
    {
        "Cod_Cancha": 24,
        "Codigo_Pais": "CR",
        "Pais": "Costa Rica",
        "Codigo_Estado": "H",
        "Estado": "Heredia",
        "Codigo_Ciudad": 21775,
        "Ciudad": "Santa Barbara",
        "Latitud": "10.0237312",
        "Longitud": "-84.1383936",
        "Codigo_Postal": null,
        "Direccion": null
    },
    {
        "Cod_Cancha": 1,
        "Codigo_Pais": "CR",
        "Pais": "Costa Rica",
        "Codigo_Estado": "SJ",
        "Estado": "San Jose",
        "Codigo_Ciudad": 21759,
        "Ciudad": "San Juan de Dios",
        "Latitud": "10.010624",
        "Longitud": "-84.1252864",
        "Codigo_Postal": null,
        "Direccion": null
    },
    {
        "Cod_Cancha": 22,
        "Codigo_Pais": "CR",
        "Pais": "Costa Rica",
        "Codigo_Estado": "A",
        "Estado": "Alajuela",
        "Codigo_Ciudad": 21753,
        "Ciudad": "San Isidro",
        "Latitud": "9.9981413",
        "Longitud": "-84.1197643",
        "Codigo_Postal": null,
        "Direccion": null
    },
    {
        "Cod_Cancha": 11,
        "Codigo_Pais": "CR",
        "Pais": "Costa Rica",
        "Codigo_Estado": "H",
        "Estado": "Heredia",
        "Codigo_Ciudad": null,
        "Ciudad": null,
        "Latitud": "9.97672462",
        "Longitud": "-84.174263",
        "Codigo_Postal": null,
        "Direccion": null
    },
    {
        "Cod_Cancha": 25,
        "Codigo_Pais": "CR",
        "Pais": "Costa Rica",
        "Codigo_Estado": "C",
        "Estado": "Cartago",
        "Codigo_Ciudad": null,
        "Ciudad": null,
        "Latitud": "9.9872841",
        "Longitud": "-84.1508945",
        "Codigo_Postal": null,
        "Direccion": null
    },
    {
        "Cod_Cancha": 13,
        "Codigo_Pais": "CR",
        "Pais": "Costa Rica",
        "Codigo_Estado": "A",
        "Estado": "Alajuela",
        "Codigo_Ciudad": 21672,
        "Ciudad": "Desamparados",
        "Latitud": "10.016516509168",
        "Longitud": "-84.17959457876",
        "Codigo_Postal": null,
        "Direccion": null
    },
    {
        "Cod_Cancha": 36,
        "Codigo_Pais": "CR",
        "Pais": "Costa Rica",
        "Codigo_Estado": "SJ",
        "Estado": "San Jose",
        "Codigo_Ciudad": null,
        "Ciudad": null,
        "Latitud": "9.9366915061633",
        "Longitud": "-84.184489155752",
        "Codigo_Postal": null,
        "Direccion": null
    },
    {
        "Cod_Cancha": 35,
        "Codigo_Pais": "CR",
        "Pais": "Costa Rica",
        "Codigo_Estado": "SJ",
        "Estado": "San Jose",
        "Codigo_Ciudad": null,
        "Ciudad": null,
        "Latitud": "9.9365306365518",
        "Longitud": "-84.184462544314",
        "Codigo_Postal": null,
        "Direccion": null
    },
    {
        "Cod_Cancha": 28,
        "Codigo_Pais": "CR",
        "Pais": "Costa Rica",
        "Codigo_Estado": "SJ",
        "Estado": "San Jose",
        "Codigo_Ciudad": null,
        "Ciudad": null,
        "Latitud": "9.9367803",
        "Longitud": "-84.1844924",
        "Codigo_Postal": null,
        "Direccion": null
    },
    {
        "Cod_Cancha": 26,
        "Codigo_Pais": "CR",
        "Pais": "Costa Rica",
        "Codigo_Estado": "SJ",
        "Estado": "San Jose",
        "Codigo_Ciudad": null,
        "Ciudad": null,
        "Latitud": "9.9368163428225",
        "Longitud": "-84.18427020073",
        "Codigo_Postal": null,
        "Direccion": null
    },
    {
        "Cod_Cancha": 49,
        "Codigo_Pais": "CR",
        "Pais": "Costa Rica",
        "Codigo_Estado": "A",
        "Estado": "Alajuela",
        "Codigo_Ciudad": 21766,
        "Ciudad": "San Rafael",
        "Latitud": "9.96691",
        "Longitud": "-84.222587",
        "Codigo_Postal": null,
        "Direccion": null
    },
    {
        "Cod_Cancha": 48,
        "Codigo_Pais": "CR",
        "Pais": "Costa Rica",
        "Codigo_Estado": "H",
        "Estado": "Heredia",
        "Codigo_Ciudad": 21764,
        "Ciudad": "San Pedro",
        "Latitud": "10.042985705193",
        "Longitud": "-84.131621295346",
        "Codigo_Postal": null,
        "Direccion": null
    },
    
    {
        "Cod_Cancha": 44,
        "Codigo_Pais": "CR",
        "Pais": "Costa Rica",
        "Codigo_Estado": "SJ",
        "Estado": "San Jose",
        "Codigo_Ciudad": 21676,
        "Ciudad": "Escazu",
        "Latitud": 0,
        "Longitud": 0,
        "Codigo_Postal": null,
        "Direccion": null
    },
    {
        "Cod_Cancha": 46,
        "Codigo_Pais": "CR",
        "Pais": "Costa Rica",
        "Codigo_Estado": "H",
        "Estado": "Heredia",
        "Codigo_Ciudad": 21764,
        "Ciudad": "San Pedro",
        "Latitud": "10.030122282269",
        "Longitud": "-84.134367508763",
        "Codigo_Postal": null,
        "Direccion": null
    },
    {
        "Cod_Cancha": 50,
        "Codigo_Pais": "CR",
        "Pais": "Costa Rica",
        "Codigo_Estado": "A",
        "Estado": "Alajuela",
        "Codigo_Ciudad": 21766,
        "Ciudad": "San Rafael",
        "Latitud": "9.96691",
        "Longitud": "-84.222587",
        "Codigo_Postal": null,
        "Direccion": null
    }
]